[
        {"id" : "A87JizJ6EjcxF3EdmaSR-pdv-2", "cid" : "A87JizJ6EjcxF3EdmaSR", "lat" : 33.587241, "lng" : -7.500894, "line" : "1", "active" : 1, "category" : "Independant", "title" : "Mostafa TRII", "code" : "Mostafa TRII", "address" : "70 Anassi extension 4 Ahl Loghlam", "type" : "ind", "station" : "Sidi Moumen 2", "district" : "Sidi Moumen", "district_ar" : "سيدي مومن"},
        {"id" : "A87JizJ6EjcxF3EdmaSR-pdv-4", "cid" : "A87JizJ6EjcxF3EdmaSR", "lat" : 33.593393, "lng" : -7.604472, "line" : "1", "active" : 1, "category" : "Independant", "title" : "OUASSIT Mustapha", "code" : "OUASSIT Mustapha", "address" : "296 Av Mohamed 5", "type" : "ind", "station" : "La Résistance", "district" : "Belvédère", "district_ar" : "بلفيدير"},
        {"id" : "A87JizJ6EjcxF3EdmaSR-pdv-11", "cid" : "A87JizJ6EjcxF3EdmaSR", "lat" : 33.595026, "lng" : -7.587177, "line" : "1", "active" : 1, "category" : "Independant", "title" : "BENDAOUD Lyazid", "code" : "BENDAOUD Lyazid", "address" : "Rue Maurice Ranel n° 15", "type" : "ind", "station" : "Ba Hmad", "district" : "Belvédère", "district_ar" : "بلفيدير"},
        {"id" : "A87JizJ6EjcxF3EdmaSR-pdv-18", "cid" : "A87JizJ6EjcxF3EdmaSR", "lat" : 33.569903, "lng" : -7.626100, "line" : "1", "active" : 1, "category" : "Independant", "title" : "World Wide Transfer", "code" : "World Wide Transfer", "address" : "BD Abdelmoumen ESC A RDC N 4 sidi Belyout", "type" : "ind", "station" : "Abdelmoumen", "district" : "Les Hôpitaux", "district_ar" : "المستشفيات"},
        {"id" : "A87JizJ6EjcxF3EdmaSR-pdv-19", "cid" : "A87JizJ6EjcxF3EdmaSR", "lat" : 33.584716, "lng" : -7.566615, "line" : "1", "active" : 1, "category" : "Independant", "title" : "IHAMJI Mohamed", "code" : "IHAMJI Mohamed", "address" : "88, RUE 2, DB TAKADOUM, HAY MOHAMMADI", "type" : "ind", "station" : "Hay Mohammadi", "district" : "Hay Mohammadi", "district_ar" : "الحي المحمدي"},
        {"id" : "A87JizJ6EjcxF3EdmaSR-pdv-23", "cid" : "A87JizJ6EjcxF3EdmaSR", "lat" : 33.588630, "lng" : -7.567480, "line" : "1", "active" : 1, "category" : "Independant", "title" : "OUHSSINE ADIL", "code" : "OUHSSINE ADIL", "address" : "Bloc Bennani 14 rue 33 n°4 HM", "type" : "ind", "station" : "ACHOUHADA", "district" : "Hay Mohammadi", "district_ar" : "المحمدي الحي"},
        {"id" : "A87JizJ6EjcxF3EdmaSR-pdv-25", "cid" : "A87JizJ6EjcxF3EdmaSR", "lat" : 33.545253, "lng" : -7.659686, "line" : "1", "active" : 1, "category" : "Independant", "title" : "Delta Forward", "code" : "Delta Forward", "address" : "lot allaymoune 2 qqt de l'aviation HH N°5", "type" : "ind", "station" : "Faculté Terminus", "district" : "Laymoune", "district_ar" : "الليمون"},
        {"id" : "A87JizJ6EjcxF3EdmaSR-pdv-26", "cid" : "A87JizJ6EjcxF3EdmaSR", "lat" : 33.575279, "lng" : -7.539517, "line" : "1", "active" : 1, "category" : "Independant", "title" : "AIT EL BACHIR", "code" : "AIT EL BACHIR", "address" : "S M J GR 5 BD Lalla Asmaa Masjid N° 252", "type" : "ind", "station" : "forces auxiliaires", "district" : "Sidi Moumen", "district_ar" : "سيدي مومن"},
        {"id" : "A87JizJ6EjcxF3EdmaSR-pdv-32", "cid" : "A87JizJ6EjcxF3EdmaSR", "lat" : 33.574030, "lng" : -7.524056, "line" : "1", "active" : 1, "category" : "Independant", "title" : "NAAMI mostafa", "code" : "NAAMI mostafa", "address" : "IMM 3 tranche 5 secteur I n°1 hay walaa sidi moumen", "type" : "ind", "station" : "ATTACHAROK", "district" : "Attacharok", "district_ar" : "التشرّق"},
        {"id" : "A87JizJ6EjcxF3EdmaSR-pdv-15", "cid" : "A87JizJ6EjcxF3EdmaSR", "lat" : 33.571633, "lng" : -7.626065, "line" : "1", "active" : 1, "category" : "Barid Cash", "title" : "Barid Cash (Casa Abdelmoumen)", "code" : "Casa Abdelmoumen", "address" : "374 boulevard Abdelmoumen", "type" : "bc", "station" : "Abdelmoumen", "district" : "Les Hôpitaux", "district_ar" : "المستشفيات"},	
        {"id" : "A87JizJ6EjcxF3EdmaSR-pdv-3", "cid" : "A87JizJ6EjcxF3EdmaSR", "lat" : 33.591674, "lng" : -7.578702, "line" : "1", "active" : 1, "category" : "M2T", "title" : "M2T (ES164)", "code" : "ES164", "address" : "Rue 2 Khalil 2 N° 60 La Villette", "type" : "m2t", "station" : "Anciens abattoirs", "district" : "Hay Mohammadi", "district_ar" : "الحي المحمدي"},
        {"id" : "A87JizJ6EjcxF3EdmaSR-pdv-6", "cid" : "A87JizJ6EjcxF3EdmaSR", "lat" : 33.576732, "lng" : -7.518658, "line" : "1", "active" : 1, "category" : "M2T", "title" : "M2T (ES755)", "code" : "ES755", "address" : "N°19, Boulevard Abdellah Ibrahimi, Lot Rahmani", "type" : "m2t", "station" : "Hôpital Sidi Moumen", "district" : "Attacharok", "district_ar" : "التشرّق"},
        {"id" : "A87JizJ6EjcxF3EdmaSR-pdv-7", "cid" : "A87JizJ6EjcxF3EdmaSR", "lat" : 33.580288, "lng" : -7.624588, "line" : "1", "active" : 1, "category" : "M2T", "title" : "M2T (ES836)", "code" : "ES836", "address" : "61 Boulevard Abdelmoumen", "type" : "m2t", "station" : "Wafa salaf", "district" : "Les Hôpitaux", "district_ar" : "المستشفيات"},
        {"id" : "A87JizJ6EjcxF3EdmaSR-pdv-9", "cid" : "A87JizJ6EjcxF3EdmaSR", "lat" : 33.579282, "lng" : -7.513374, "line" : "1", "active" : 1, "category" : "M2T", "title" : "M2T (ES104)", "code" : "ES104", "address" : "Alhadika G3 M09", "type" : "m2t", "station" : "CEM", "district" : "Sidi Moumen", "district_ar" : "سيدي مومن"},
        {"id" : "A87JizJ6EjcxF3EdmaSR-pdv-10", "cid" : "A87JizJ6EjcxF3EdmaSR", "lat" : 33.540629, "lng" : -7.642294, "line" : "1", "active" : 1, "category" : "M2T", "title" : "M2T (Kiosque Zénith)", "code" : "Kiosque Zénith", "address" : "Station Zenith", "type" : "m2t", "station" : "Zenith", "district" : "Sidi Maarouf", "district_ar" : "سيدي معروف"},
        {"id" : "A87JizJ6EjcxF3EdmaSR-pdv-13", "cid" : "A87JizJ6EjcxF3EdmaSR", "lat" : 33.594605, "lng" : -7.612757, "line" : "1", "active" : 1, "category" : "M2T", "title" : "M2T (Kiosque MC)", "code" : "Kiosque MC", "address" : "Station Marché Central", "type" : "m2t", "station" : "Marché Central", "district" : "Centre Ville", "district_ar" : "وسط المدينة"},
        {"id" : "A87JizJ6EjcxF3EdmaSR-pdv-14", "cid" : "A87JizJ6EjcxF3EdmaSR", "lat" : 33.587950, "lng" : -7.499635, "line" : "1", "active" : 1, "category" : "M2T", "title" : "M2T (ES181)", "code" : "ES181", "address" : "N 8 Extension Anassi G1 Entree 2", "type" : "m2t", "station" : "Sidi Moumen", "district" : "Sidi Moumen", "district_ar" : "سيدي مومن"},
        {"id" : "A87JizJ6EjcxF3EdmaSR-pdv-16", "cid" : "A87JizJ6EjcxF3EdmaSR", "lat" : 33.590801, "lng" : -7.592726, "line" : "1", "active" : 1, "category" : "M2T", "title" : "M2T (ES746)", "code" : "ES746", "address" : "N°10 Place Sidi Med Rce Ben Batouta", "type" : "m2t", "station" : "Casa Voyageurs", "district" : "Belvédère", "district_ar" : "بلفيدير"},
        {"id" : "A87JizJ6EjcxF3EdmaSR-pdv-28", "cid" : "A87JizJ6EjcxF3EdmaSR", "lat" : 33.576334, "lng" : -7.546116, "line" : "1", "active" : 1, "category" : "M2T", "title" : "M2T (ES820)", "code" : "ES820", "address" : "Groupe 4 N°157 BD Okba Ibn Nafii Sidi Moumen", "type" : "m2t", "station" : "Hay Rajaa", "district" : "Sidi Moumen", "district_ar" : "سيدي مومن"},
        {"id" : "A87JizJ6EjcxF3EdmaSR-pdv-29", "cid" : "A87JizJ6EjcxF3EdmaSR", "lat" : 33.579735, "lng" : -7.625381, "line" : "1", "active" : 1, "category" : "M2T", "title" : "M2T (ES9010)", "code" : "ES9010", "address" : "52 Bld Abdelmoumen & rue Errazi résidence Al Manar Mag N°22", "type" : "m2t", "station" : "Wafa salaf", "district" : "Les Hôpitaux", "district_ar" : "المستشفيات"},
        {"id" : "A87JizJ6EjcxF3EdmaSR-pdv-59", "cid" : "A87JizJ6EjcxF3EdmaSR", "lat" : 33.585069, "lng" : -7.503909, "line" : "1", "active" : 1, "category" : "M2T", "title" : "ES", "code" : "ES", "address" : "station annasim", "type" : "M2T", "station" : "annasim", "district" : "sidi moumen", "district_ar" : "سيدي مومن"},
        {"id" : "A87JizJ6EjcxF3EdmaSR-pdv-30", "cid" : "A87JizJ6EjcxF3EdmaSR", "lat" : 33.576217, "lng" : -7.625883, "line" : "1", "active" : 1, "category" : "M2T", "title" : "M2T (ES62)", "code" : "ES62", "address" : "118, Bd Abdelmoumen", "type" : "m2t", "station" : "faculté de médecine", "district" : "Les Hôpitaux", "district_ar" : "المستشفيات"},
        {"id" : "A87JizJ6EjcxF3EdmaSR-pdv-31", "cid" : "A87JizJ6EjcxF3EdmaSR", "lat" : 33.589483, "lng" : -7.620081, "line" : "1", "active" : 1, "category" : "M2T", "title" : "M2T (kiosque Place Med V)", "code" : "kiosque Place Med V", "address" : "station PMV", "type" : "m2t", "station" : "Place Mohammed V", "district" : "Centre Ville", "district_ar" : "وسط المدينة"},
        {"id" : "A87JizJ6EjcxF3EdmaSR-pdv-35", "cid" : "A87JizJ6EjcxF3EdmaSR", "lat" : 33.595102, "lng" : -7.617941, "line" : "1", "active" : 1, "category" : "M2T", "title" : "M2T (Kiosque NU)", "code" : "Kiosque NU", "address" : "Place Nations Unies", "type" : "m2t", "station" : "Nations Unies", "district" : "Centre Ville", "district_ar" : "وسط المدينة"},
        {"id" : "A87JizJ6EjcxF3EdmaSR-pdv-37", "cid" : "A87JizJ6EjcxF3EdmaSR", "lat" : 33.583929, "lng" : -7.623229, "line" : "1", "active" : 1, "category" : "M2T", "title" : "M2T (Kiosque Hassan II)", "code" : "Kiosque Hassan II", "address" : "station Hassan II", "type" : "m2t", "station" : "Hassan II", "district" : "Centre Ville", "district_ar" : "وسط المدينة"},
        {"id" : "A87JizJ6EjcxF3EdmaSR-pdv-48", "cid" : "A87JizJ6EjcxF3EdmaSR", "lat" : 33.535444, "lng" : -7.669972, "line" : "1", "active" : 1, "category" : "Independant", "title" : "Lissasfa Tram", "code" : "Lissasfa Tram", "address" : "Lissasfa 1 N° 314 A", "type" : "cp", "station" : "Lissasfa", "district" : "Lissasfa", "district_ar" : ""},
        {"id" : "A87JizJ6EjcxF3EdmaSR-pdv-49", "cid" : "A87JizJ6EjcxF3EdmaSR", "lat" : 33.595203, "lng" : -7.618185, "line" : "1", "active" : 1, "category" : "Maison de la Mobilité", "title" : "Maison de la Mobilité", "code" : "Maison de la Mobilité", "address" : "Place Nations Unies", "type" : "mob", "station" : "Nations Unies", "district" : "Centre Ville", "district_ar" : "وسط المدينة"},
        {"id" : "A87JizJ6EjcxF3EdmaSR-pdv-53", "cid" : "A87JizJ6EjcxF3EdmaSR", "lat" : 33.534090, "lng" : -7.670070, "line" : "1", "active" : 0, "category" : "Agence CTW", "title" : "Agence Facultés", "code" : "Agence Facultés", "address" : "Route ancienne faculté de Ain chock", "type" : "agn", "station" : "Facultés", "district" : "Les Hôpitaux", "district_ar" : "المستشفيات"},
        {"id" : "A87JizJ6EjcxF3EdmaSR-pdv-55", "cid" : "A87JizJ6EjcxF3EdmaSR", "lat" : 33.586900, "lng" : -7.567347, "line" : "1", "active" : 1, "category" : "Agence CTW", "title" : "Agence Hay Mohammadi", "code" : "Agence Hay Mohammadi", "address" : "Hay El Mohammadi Av A N°676, Lot. Zemmouri", "type" : "agn", "station" : "Hay Mohammadi", "district" : "Hay Mohammadi", "district_ar" : "الحي المحمدي"},
        {"id" : "A87JizJ6EjcxF3EdmaSR-pdv-56", "cid" : "A87JizJ6EjcxF3EdmaSR", "lat" : 33.590957, "lng" : -7.591510, "line" : "1", "active" : 1, "category" : "Agence CTW", "title" : "Agence Casa Voyageurs", "code" : "Agence Casa Voyageurs", "address" : "3 Place Pierre Semard (Place Sidi Med)", "type" : "agn", "station" : "", "district" : "Belvédère", "district_ar" : "بلفيدير"},
        {"id" : "A87JizJ6EjcxF3EdmaSR-pdv-57", "cid" : "A87JizJ6EjcxF3EdmaSR", "lat" : 33.573653, "lng" : -7.625673, "line" : "1", "active" : -1, "category" : "Agence CTW", "title" : "Agence Abdelmoumen", "code" : "Agence Abdelmoumen", "address" : "Quartier des Hopitaux (RIADA 3)", "type" : "agn", "station" : "", "district" : "Les Hôpitaux", "district_ar" : "المستشفيات"},
        {"id" : "A87JizJ6EjcxF3EdmaSR-pdv-58", "cid" : "A87JizJ6EjcxF3EdmaSR", "lat" : 33.594555, "lng" : -7.619497, "line" : "1", "active" : -1, "category" : "", "title" : "Agence commerciale mobile", "code" : "Agence Nations Unies", "address" : "Place Nation Unies", "type" : "agn", "station" : "", "district" : "Centre Ville", "district_ar" : "وسط المدينة"},
        {"id" : "A87JizJ6EjcxF3EdmaSR-pdv-65", "cid" : "A87JizJ6EjcxF3EdmaSR", "lat" : 33.573255, "lng" : -7.530136, "line" : "1", "active" : -1, "category" : "Cash Plus", "title" : "Walaa", "code" : "Walaa", "address" : "Hay Al Walaa Tranche 6 Immeuble 3 Secteur 1 BD A", "type" : "Cash plus", "station" : "Okba Ibn Nafii", "district" : "Hay MOHAMMADI", "district_ar" :  "الحي المحمدي"},
        {"id" : "A87JizJ6EjcxF3EdmaSR-pdv-66", "cid" : "A87JizJ6EjcxF3EdmaSR", "lat" : 33.5878, "lng" : -7.56739, "line" : "1", "active" : 0, "category" : "Cash Plus", "title" : "ESSAADA", "code" : "ESSAADA", "address" : "582 AV(A) Bloc 9 Hay Mohammedi", "type" : "Cash plus", "station" : "Achouhada", "district" : "Hay MOHAMMADI", "district_ar" :  "المحمدي الحي"},
        {"id" : "A87JizJ6EjcxF3EdmaSR-pdv-67", "cid" : "A87JizJ6EjcxF3EdmaSR", "lat" : 33.593508, "lng" : -7.602709, "line" : "1", "active" : -1, "category" : "Cash Plus", "title" : "EUROSOL CASA MOHAMMED V", "code" : "EUROSOL CASA MOHAMMED V", "address" : "N 353 Espace Idriss Angle Boulevard Mohammed V", "type" : "Cash plus", "station" : "la Résistance", "district" : "Belvédère", "district_ar" :  "بلفيدير"},
        {"id" : "A87JizJ6EjcxF3EdmaSR-pdv-68", "cid" : "A87JizJ6EjcxF3EdmaSR", "lat" : 33.594397, "lng" : -7.618195, "line" : "1", "active" : -1, "category" : "Cash Plus", "title" : "HASSAN II SAHAT OMAM", "code" : "HASSAN II SAHAT OMAM", "address" : "19 AVENUE HASSAN II", "type" : "Cash plus", "station" : "Place Mohammed V", "district" : "Centre Ville", "district_ar" :  "وسط المدينة"},
        {"id" : "A87JizJ6EjcxF3EdmaSR-pdv-73", "cid" : "A87JizJ6EjcxF3EdmaSR", "lat" : 33.542808, "lng" : -7.639731, "line" : "1", "active" : -1, "category" : "Cash Plus", "title" : "Technoparc", "code" : "Technoparc", "address" : "Technoparc", "type" : "Cash plus", "station" : "Technopark", "district" : "Sidi Maarouf", "district_ar" :  ""},
        {"id" : "A87JizJ6EjcxF3EdmaSR-pdv-71", "cid" : "A87JizJ6EjcxF3EdmaSR", "lat" : 33.521814, "lng" : -7.641720, "line" : "2", "active" : -1, "category" : "Cash Plus", "title" : "Near shore", "code" : "Near shore", "address" : "Casa nearshor", "type" : "Cash plus", "station" : "Zénith", "district" : "Sidi Maarouf", "district_ar" : "Belvédère", "district_ar" :  "بلفيدير"},
        {"id" : "A87JizJ6EjcxF3EdmaSR-pdv-61", "cid" : "A87JizJ6EjcxF3EdmaSR", "lat" : 33.587278, "lng" : -7.563778, "line" : "2", "active" : 1, "category" : "independant", "title" : "RAHIM Samira", "code" : "RAHIM Samira", "address" : "Kiosque face marché Bazil Im 18 Hay Mohammadi", "type" : "ind", "station" : "Kissariat hay MOHAMMADI", "district" : "Hay MOHAMMADI", "district_ar" : "الحي المحمدي"},
        {"id" : "A87JizJ6EjcxF3EdmaSR-pdv-62", "cid" : "A87JizJ6EjcxF3EdmaSR", "lat" : 33.592917, "lng" : -7.564528, "line" : "2", "active" : 1, "category" : "independant", "title" : "MOUZOUN Mostafa", "code" : "MOUZOUN Mostafa", "address" : "135 BD Ali Yaata (ex rue lamontoise) Hay Mohammadi", "type" : "ind", "station" : "Carrières centrales", "district" : "Hay MOHAMMADI", "district_ar" : "الحي المحمدي"},
        {"id" : "A87JizJ6EjcxF3EdmaSR-pdv-63", "cid" : "A87JizJ6EjcxF3EdmaSR", "lat" : 33.599833, "lng" : -7.531972, "line" : "2", "active" : 1, "category" : "independant", "title" : "Widad Finance Services", "code" : "Widad Finance Services", "address" : "Résidence Basma 2 GH 6 Imm 24 N° 7 Ain Sbaa", "type" : "ind", "station" : "AL Amane", "district" : "Ain Sbaa", "district_ar" : "عين السبع"},
        {"id" : "A87JizJ6EjcxF3EdmaSR-pdv-64", "cid" : "A87JizJ6EjcxF3EdmaSR", "lat" : 33.571567, "lng" : -7.586346, "line" : "2", "active" : 1, "category" : "independant", "title" : "Green World Opérations", "code" : "Green World Opérations", "address" : "N 375 Ang Bd Gaza ex rue 51 et Bd El Fida", "type" : "ind", "station" : "Hay El Farah", "district" : "El Fida Derb Sultan", "district_ar" : "الفداء درب السلطان"},
        {"id" : "A87JizJ6EjcxF3EdmaSR-pdv-1", "cid" : "A87JizJ6EjcxF3EdmaSR", "lat" : 33.607250, "lng" : -7.524083, "line" : "2", "active" : 1, "category" : "independant", "title" : "Stazione Coffe", "code" : "Stazione Coffe", "address" : "projet Daris GH8 Imm 20 magasin 5 Km 9 routede rabat Ain sbaa", "type" : "ind", "station" : "Gare de Ain Sbaa", "district" : "Ain Sbaa", "district_ar" : "عين السبع"},
        {"id" : "A87JizJ6EjcxF3EdmaSR-pdv-5", "cid" : "A87JizJ6EjcxF3EdmaSR", "lat" : 33.581663, "lng" : -7.563163, "line" : "2", "active" : 1, "category" : "independant", "title" : "casatrans service", "code" : "casatrans service", "address" : "bd grande ceinture en face la station tramway MDAKRA", "type" : "ind", "station" : "Mdakra", "district" : "Hay MOHAMMADI", "district_ar" : "الحي المحمدي"},
        {"id" : "A87JizJ6EjcxF3EdmaSR-pdv-22", "cid" : "A87JizJ6EjcxF3EdmaSR", "lat" : 33.570046, "lng" : -7.632092, "line" : "2", "active" : 1, "category" : "Independant", "title" : "EL HACHEMY Abdellah", "code" : "EL HACHEMY Abdellah", "address" : "Av Anoual en face le souk de Derb Ghallef", "type" : "ind", "station" : "Derb Ghallef", "district" : "Derb Ghallef", "district_ar" : "درب غلف"},
        {"id" : "A87JizJ6EjcxF3EdmaSR-pdv-33", "cid" : "A87JizJ6EjcxF3EdmaSR", "lat" : 33.568905, "lng" : -7.644754, "line" : "2", "active" : 1, "category" : "Independant", "title" : "BELLATI Mohamed", "code" : "BELLATI Mohamed", "address" : "BD Omar El khayam en face de la station Ghandi", "type" : "ind", "station" : "GHANDI", "district" : "Beauséjour", "district_ar" : "المقام الجميل"},
        {"id" : "A87JizJ6EjcxF3EdmaSR-pdv-39", "cid" : "A87JizJ6EjcxF3EdmaSR", "lat" : 33.572028, "lng" : -7.597111, "line" : "2", "active" : 1, "category" : "Independant", "title" : "Brahim AZARI", "code" : "Brahim AZARI", "address" : "Kiosque Ang Bd Mohamed VI et Fida", "type" : "ind", "station" : "Derb Sultan", "district" : "El Fida Derb Sultan", "district_ar" : "الفداء درب السلطان"},
        {"id" : "A87JizJ6EjcxF3EdmaSR-pdv-44", "cid" : "A87JizJ6EjcxF3EdmaSR", "lat" : 33.593974, "lng" : -7.557639, "line" : "2", "active" : 1, "category" : "Independant", "title" : "Nait Dayaa Salah", "code" : "Nait Dayaa Salah", "address" : "BD Ali Yaata Ang rue 7 Hay Smara HM", "type" : "ind", "station" : "Dar Lamane", "district" : "Hay MOHAMMADI", "district_ar" : "الحي المحمدي"},
        {"id" : "A87JizJ6EjcxF3EdmaSR-pdv-47", "cid" : "A87JizJ6EjcxF3EdmaSR", "lat" : 33.606639, "lng" : -7.517944, "line" : "2", "active" : 1, "category" : "Independant", "title" : "SOPHORAS sarl", "code" : "SOPHORAS sarl", "address" : "70 Av Abi Dar El Ghifari Bernoussi", "type" : "ind", "station" : "Abi Dar El Ghafari", "district" : "Sidi Bernoussi", "district_ar" : "سيدي البرنوصي"},
        {"id" : "A87JizJ6EjcxF3EdmaSR-pdv-50", "cid" : "A87JizJ6EjcxF3EdmaSR", "lat" : 33.569440, "lng" : -7.602878, "line" : "2", "active" : 0, "category" : "Maison de la Mobilité", "title" : "Maison de la Mobilité", "code" : "Maison de la Mobilité", "address" : "Place Sraghna", "type" : "mob", "station" : "Place Sraghna", "district" : "El Fida Derb Sultan", "district_ar" : "الفداء درب السلطان"},
        {"id" : "A87JizJ6EjcxF3EdmaSR-pdv-52", "cid" : "A87JizJ6EjcxF3EdmaSR", "lat" : 33.610285, "lng" : -7.508681, "line" : "2", "active" : 0, "category" : "Agence CTW", "title" : "Agence Sidi Bernoussi", "code" : "Agence Sidi Bernoussi", "address" : "Av Abi Dar El Ghafari centre de maintenance Bernoussi", "type" : "agn", "station" : "Sidi Bernoussi Terminus", "district" : "Sidi Bernoussi", "district_ar" : "سيدي البرنوصي"},
        {"id" : "A87JizJ6EjcxF3EdmaSR-pdv-54", "cid" : "A87JizJ6EjcxF3EdmaSR", "lat" : 33.569336, "lng" : -7.624961, "line" : "2", "active" : 1, "category" : "Agence CTW", "title" : "Agence Anoual", "code" : "Agence Anoual", "address" : "Av Anoual en face station Anoual", "type" : "agn", "station" : "Anoual", "district" : "Derb Ghallef", "district_ar" : "درب غلف"},
        {"id" : "A87JizJ6EjcxF3EdmaSR-pdv-60", "cid" : "A87JizJ6EjcxF3EdmaSR", "lat" : 33.569628, "lng" : -7.670759, "line" : "2", "active" : 1, "category" : "M2T", "title" : "ES183", "code" : "ES183", "address" : "Complexe essaada bnou sina rue 4 imb 12 N°105 mazola Hay Hassani", "type" : "M2T", "station" : "Sidi Abderrahmane", "district" : "Hay Hassani", "district_ar" : " الحسني الحي"},
        {"id" : "A87JizJ6EjcxF3EdmaSR-pdv-69", "cid" : "A87JizJ6EjcxF3EdmaSR", "lat" : 33.6102983, "lng" : -7.5065715, "line" : "2", "active" : -1, "category" : "Cash Plus", "title" : "BERNOUSSI", "code" : "BERNOUSSI", "address" : "Bloc 88 N 1 Sidi Bernoussi", "type" : "Cash plus", "station" : "Sidi Bernoussi Terminus", "district" : "Sidi Bernoussi", "district_ar" :  "سيدي البرنوصي"},
        {"id" : "A87JizJ6EjcxF3EdmaSR-pdv-70", "cid" : "A87JizJ6EjcxF3EdmaSR", "lat" : 33.568854, "lng" : -7.6032195, "line" : "2", "active" : -1, "category" : "Cash Plus", "title" : "CASBDELFIDA", "code" : "CASBDELFIDA", "address" : "300 Kissariat El Manjra Derb Korea Bd El Fida", "type" : "Cash plus", "station" : "EL Fida", "district" : "El Fida Derb Sultan", "district_ar" :  "الفداء درب السلطان"},
        {"id" : "A87JizJ6EjcxF3EdmaSR-pdv-24", "cid" : "A87JizJ6EjcxF3EdmaSR", "lat" : 33.576349, "lng" : -7.672936, "line" : "2", "active" : 1, "category" : "Independant", "title" : "Jamal SAWISSE", "code" : "Jamal SAWISSE", "address" : "Derb Alhoria BC 211n° 132 hay Hassani", "type" : "ind", "station" : "Hay Hassani", "district" : "Hay Hassani", "district_ar" : "درب غلف"},
    ]