[
        {
        "color": "#f38230",
        "description": "",
        "lat": "33.587280458339585",
        "lng": "-7.500931050231884",
        "active": "true",
        "cid": "A87JizJ6EjcxF3EdmaSR",
        "title_ar": "سيدي مومن النهاية",
        "tfps": "0",
        "id": "jiPa5k27EaT6hGSIF0pc",
        "title": "Sidi Moumen Terminus",
        "district": "Sidi Moumen",
        "type": "T1",
        "number": "01"
        },
        {
        "number": "02",
        "color": "#f38230",
        "description": "",
        "lat": "33.58508178237927",
        "lng": "-7.50427844708247",
        "active": "true",
        "cid": "A87JizJ6EjcxF3EdmaSR",
        "title_ar": "النسيم",
        "tfps": "51",
        "id": "3EEhfYkbcQpNIyaWZXPq",
        "title": "Ennassim",
        "district": "Sidi Moumen",
        "type": "N"
        },
        {
        "district": "Sidi Moumen",
        "type": "N",
        "number": "03",
        "color": "#f38230",
        "description": "",
        "lat": "33.58226632282282",
        "lng": "-7.508645083358715",
        "active": "true",
        "cid": "A87JizJ6EjcxF3EdmaSR",
        "title_ar": "محمد الزفزاف",
        "tfps": "72",
        "id": "H0ur2G4BVe2teisYtAVS",
        "title": "Mohammed Zefzaf"
        },
        {
        "color": "#f38230",
        "description": "",
        "lat": "33.579288580212925",
        "lng": "-7.513350385736089",
        "active": "true",
        "cid": "A87JizJ6EjcxF3EdmaSR",
        "title_ar": "مركز الصيانة",
        "tfps": "83",
        "id": "7gvmhXjzPTAgu6quzTJh",
        "title": "Centre de maintenance",
        "district": "Sidi Moumen",
        "type": "N",
        "number": "04"
        },
        {
        "color": "#f38230",
        "description": "",
        "lat": "33.576320973399625",
        "lng": "-7.518006700585943",
        "active": "true",
        "cid": "A87JizJ6EjcxF3EdmaSR",
        "title_ar": "مستشفى سيدي مومن",
        "tfps": "125",
        "id": "yb5YhkQfU2oBmonLQyzA",
        "title": "Hôpital Sidi Moumen",
        "district": "Sidi Moumen",
        "type": "N",
        "number": "05"
        },
        {
        "title_ar": "التشارك",
        "tfps": "112",
        "id": "MTfqc6xxu4oRKrgp0ybC",
        "title": "Attachourk",
        "district": "Sidi Moumen",
        "type": "N",
        "number": "06",
        "color": "#f38230",
        "description": "",
        "lat": "33.574068384448864",
        "lng": "-7.524165052484136",
        "active": "true",
        "cid": "A87JizJ6EjcxF3EdmaSR"
        },
        {
        "district": "Sidi Moumen",
        "type": "N",
        "number": "07",
        "color": "#f38230",
        "description": "",
        "lat": "33.57291525069048",
        "lng": "-7.532533544610601",
        "active": "true",
        "cid": "A87JizJ6EjcxF3EdmaSR",
        "title_ar": "عقبة ابن نافع",
        "tfps": "152",
        "id": "A1mmUzKQmgE6AKVMR4bw",
        "title": "Okba Ibn Nafii"
        },
        {
        "district": "Bournazel",
        "type": "N",
        "number": "08",
        "color": "#f38230",
        "description": "",
        "lat": "33.57459578157671",
        "lng": "-7.539163965295415",
        "active": "true",
        "cid": "A87JizJ6EjcxF3EdmaSR",
        "title_ar": "القوات المساعدة",
        "tfps": "114",
        "id": "gXxSjYhZCPpHmuvnOwPV",
        "title": "Forces auxiliaires"
        },
        {
        "color": "#f38230",
        "description": "",
        "lat": "33.576553380025295",
        "lng": "-7.548186916421514",
        "active": "true",
        "cid": "A87JizJ6EjcxF3EdmaSR",
        "title_ar": "حي الرجاء",
        "tfps": "126",
        "id": "Ft5pxrwUmCIFyswXwMHC",
        "title": "Hay Raja",
        "district": "Bournazel",
        "type": "N",
        "number": "09"
        },
        {
        "active": "true",
        "cid": "A87JizJ6EjcxF3EdmaSR",
        "title_ar": "إبن تاشفين",
        "tfps": "198",
        "id": "TIdPLSfkZVBpSjq96Ah0",
        "title": "Ibn Tachfine",
        "district": "Hay Mohammadi",
        "type": "C",
        "number": "10",
        "color": "#f38230",
        "description": "",
        "lat": "33.5807008391867",
        "lng": "-7.5632072869049125"
        },
        {
        "tfps": "189",
        "id": "mQBd6nn9E3boBFS4JweR",
        "title": "Hay Mohammadi",
        "district": "Hay Mohammadi",
        "type": "N",
        "number": "11",
        "color": "#f38230",
        "description": "",
        "lat": "33.58545587037252",
        "lng": "-7.56676926047669",
        "active": "true",
        "cid": "A87JizJ6EjcxF3EdmaSR",
        "title_ar": "الحي المحمدي"
        },
        {
        "lng": "-7.567820686410528",
        "active": "true",
        "cid": "A87JizJ6EjcxF3EdmaSR",
        "title_ar": "الشهداء",
        "tfps": "96",
        "id": "xIhGHKxnUXWfiyAhuCVA",
        "title": "Achouhada",
        "district": "Hay Mohammadi",
        "type": "N",
        "number": "12",
        "color": "#f38230",
        "description": "",
        "lat": "33.58894153505292"
        },
        {
        "district": "Hay Mohammadi",
        "type": "C",
        "number": "13",
        "color": "#f38230",
        "description": "",
        "lat": "33.59144397669552",
        "lng": "-7.569708961557012",
        "active": "true",
        "cid": "A87JizJ6EjcxF3EdmaSR",
        "title_ar": "علي يعثة",
        "tfps": "115",
        "id": "42yB1I7YrVpGgtv2bp6v",
        "title": "Ali Yaata"
        },
        {
        "district": "Hay Mohammadi",
        "type": "N",
        "number": "14",
        "color": "#f38230",
        "description": "",
        "lat": "33.59047875780443",
        "lng": "-7.573549884866338",
        "active": "true",
        "cid": "A87JizJ6EjcxF3EdmaSR",
        "title_ar": "الحزام الكبير",
        "tfps": "92",
        "id": "z4mGoZMzKAzo9kMIDRET",
        "title": "Grande ceinture"
        },
        {
        "district": "Hay Mohammadi",
        "type": "N",
        "number": "15",
        "color": "#f38230",
        "description": "",
        "lat": "33.59080049863477",
        "lng": "-7.577905792306524",
        "active": "true",
        "cid": "A87JizJ6EjcxF3EdmaSR",
        "title_ar": "المجازر القديمة",
        "tfps": "107",
        "id": "wfmFQlDkzqiiDmkaNyWS",
        "title": "Anciens abattoirs"
        },
        {
        "type": "N",
        "number": "16",
        "color": "#f38230",
        "description": "",
        "lat": "33.59469704230753",
        "lng": "-7.586596149514776",
        "active": "true",
        "cid": "A87JizJ6EjcxF3EdmaSR",
        "title_ar": "با حماد",
        "tfps": "216",
        "id": "W34KAg9OUts7JcQpH5fE",
        "title": "Bahmad",
        "district": "Belvédère"
        },
        {
        "color": "#f38230",
        "description": "",
        "lat": "33.590389385138664",
        "lng": "-7.592014211724859",
        "active": "true",
        "cid": "A87JizJ6EjcxF3EdmaSR",
        "title_ar": "الدارالبيضاء المسافرين",
        "tfps": "131",
        "id": "GiD6j3UqEN6Q5O8jy4AC",
        "title": "Casa Voyageurs",
        "district": "Belvédère",
        "type": "N",
        "number": "17"
        },
        {
        "color": "#f38230",
        "description": "",
        "lat": "33.59293646983095",
        "lng": "-7.597035307000738",
        "active": "true",
        "cid": "A87JizJ6EjcxF3EdmaSR",
        "title_ar": "ساحة آل ياسر",
        "tfps": "116",
        "id": "EhawWZZCpnW8JCW0YXxe",
        "title": "Place Al Yassir",
        "district": "Belvédère",
        "type": "N",
        "number": "18"
        },
        {
        "type": "N",
        "number": "19",
        "color": "#f38230",
        "description": "",
        "lat": "33.59344587774455",
        "lng": "-7.603086370538335",
        "active": "true",
        "cid": "A87JizJ6EjcxF3EdmaSR",
        "title_ar": "المقاومة",
        "tfps": "113",
        "id": "FDj048GvgVpWYsvoOFf8",
        "title": "La Résistance",
        "district": "Belvédère"
        },
        {
        "lng": "-7.608397144387823",
        "active": "true",
        "cid": "A87JizJ6EjcxF3EdmaSR",
        "title_ar": "محمد الديوري",
        "tfps": "95",
        "id": "ST6Tl79SlK7famH8UYr5",
        "title": "Mohamed Diouri",
        "district": "Derb Omar",
        "type": "N",
        "number": "20",
        "color": "#f38230",
        "description": "",
        "lat": "33.59370504903717"
        },
        {
        "title_ar": "السوق المركزي",
        "tfps": "107",
        "id": "U8r5HYhMnDFQhDqyYIqc",
        "title": "Marché Central",
        "district": "Derb Omar",
        "type": "N",
        "number": "21",
        "color": "#f38230",
        "description": "",
        "lat": "33.59458980034188",
        "lng": "-7.612613576959234",
        "active": "true",
        "cid": "A87JizJ6EjcxF3EdmaSR"
        },
        {
        "color": "#f38230",
        "description": "",
        "lat": "33.595242186905004",
        "lng": "-7.6179404440628105",
        "active": "true",
        "cid": "A87JizJ6EjcxF3EdmaSR",
        "title_ar": "ساحة الأمم المتحدة",
        "tfps": "173",
        "id": "NaRszZJkF3cSe77LKspw",
        "title": "Place des Nations Unies",
        "district": "Centre Ville",
        "type": "N",
        "number": "22"
        },
        {
        "tfps": "142",
        "id": "EJfWdmBCYVNN4BtUYkjh",
        "title": "Place Mohammed V",
        "district": "Centre Ville",
        "type": "N",
        "number": "23",
        "color": "#f38230",
        "description": "",
        "lat": "33.58946884129252",
        "lng": "-7.620080846856695",
        "active": "true",
        "cid": "A87JizJ6EjcxF3EdmaSR",
        "title_ar": "ساحة محمد الخامس"
        },
        {
        "color": "#f38230",
        "description": "",
        "lat": "33.58391408915446",
        "lng": "-7.623229760240179",
        "active": "true",
        "cid": "A87JizJ6EjcxF3EdmaSR",
        "title_ar": "شارع الحسن الثاني",
        "tfps": "115",
        "id": "WeWyZfroqMOJ9RlY0pgv",
        "title": "Avenue Hassan II",
        "district": "Centre Ville",
        "type": "N",
        "number": "24"
        },
        {
        "title": "Wafasalaf",
        "district": "Les Hôpitaux",
        "type": "N",
        "number": "25",
        "color": "#f38230",
        "description": "",
        "lat": "33.57999024341455",
        "lng": "-7.624892729829412",
        "active": "true",
        "cid": "A87JizJ6EjcxF3EdmaSR",
        "title_ar": "وفا سلف",
        "tfps": "98",
        "id": "bSV3QCeho76Xr1MlQred"
        },
        {
        "district": "Les Hôpitaux",
        "type": "N",
        "number": "26",
        "color": "#f38230",
        "description": "",
        "lat": "33.574814784521955",
        "lng": "-7.625815409730535",
        "active": "true",
        "cid": "A87JizJ6EjcxF3EdmaSR",
        "title_ar": "كلية الطب",
        "tfps": "107",
        "id": "pyzyRJ1hWy3qi3GH0vSW",
        "title": "Faculté de Médecine"
        },
        {
        "district": "Les Hôpitaux",
        "type": "C",
        "number": "27",
        "color": "#f38230",
        "description": "",
        "lat": "33.57081901072491",
        "lng": "-7.625965613435369",
        "active": "true",
        "cid": "A87JizJ6EjcxF3EdmaSR",
        "title_ar": "عبد المومن",
        "tfps": "117",
        "id": "vfo8scM8Bcuan31f2T7L",
        "title": "Abdelmoumen"
        },
        {
        "lng": "-7.6272530737625175",
        "active": "true",
        "cid": "A87JizJ6EjcxF3EdmaSR",
        "title_ar": "باشكو",
        "tfps": "184",
        "id": "b4DZwYy4d6R4NzX2hyIt",
        "title": "Bachkou",
        "district": "Maarif",
        "type": "N",
        "number": "28",
        "color": "#f38230",
        "description": "",
        "lat": "33.5643601262303"
        },
        {
        "color": "#f38230",
        "description": "",
        "lat": "33.558191328768515",
        "lng": "-7.629672426293951",
        "active": "true",
        "cid": "A87JizJ6EjcxF3EdmaSR",
        "title_ar": "مكة",
        "tfps": "144",
        "id": "YX7i1A16rugtmY5VrSmf",
        "title": "Mekka",
        "district": "Oasis",
        "type": "N",
        "number": "29"
        },
        {
        "district": "Oasis",
        "type": "N",
        "number": "30",
        "color": "#f38230",
        "description": "",
        "lat": "33.55400702406493",
        "lng": "-7.631292480538946",
        "active": "true",
        "cid": "A87JizJ6EjcxF3EdmaSR",
        "title_ar": "الوازيس",
        "tfps": "71",
        "id": "IQNidW6S84RyQdBqlJiR",
        "title": "Gare Oasis"
        },
        {
        "title": "Panoramique",
        "district": "Oasis",
        "type": "N",
        "number": "31",
        "color": "#f38230",
        "description": "",
        "lat": "33.547309926617785",
        "lng": "-7.6318718376861625",
        "active": "true",
        "cid": "A87JizJ6EjcxF3EdmaSR",
        "title_ar": "بانوراميك",
        "tfps": "119",
        "id": "ovypUW4FaYh3EiZa1b8R"
        },
        {
        "number": "32",
        "color": "#f38230",
        "description": "",
        "lat": "33.54472572753166",
        "lng": "-7.637987274240118",
        "active": "true",
        "cid": "A87JizJ6EjcxF3EdmaSR",
        "title_ar": "تكنوبارك",
        "tfps": "147",
        "id": "5Ld61oeL0ifuEthEXlZ2",
        "title": "Technopark",
        "district": "Sidi Maarouf",
        "type": "N"
        },
        {
        "lng": "-7.6428581658111625",
        "active": "true",
        "cid": "A87JizJ6EjcxF3EdmaSR",
        "title_ar": "زنيث",
        "tfps": "119",
        "id": "GKWIbi603JjkHaDTCjSz",
        "title": "Zénith",
        "district": "Sidi Maarouf",
        "type": "N",
        "number": "33",
        "color": "#f38230",
        "description": "",
        "lat": "33.54073750393115"
        },
        {
        "title": "Gare Casa Sud",
        "district": "Sidi Maarouf",
        "type": "N",
        "number": "34",
        "color": "#f38230",
        "description": "",
        "lat": "33.54202520162446",
        "lng": "-7.6509477082000785",
        "active": "true",
        "cid": "A87JizJ6EjcxF3EdmaSR",
        "title_ar": "محطة كازا الجنوبية",
        "tfps": "173",
        "id": "JdhfYPmaCBArOeJdul1P"
        },
        {
        "district": "Sidi Maarouf",
        "type": "T1",
        "number": "35",
        "color": "#f38230",
        "description": "",
        "lat": "33.54581664453016",
        "lng": "-7.657342094491582",
        "active": "true",
        "cid": "A87JizJ6EjcxF3EdmaSR",
        "title_ar": "الكليات",
        "tfps": "102",
        "id": "icCeidBKEMt7YHettcZT",
        "title": "Facultés"
        },
        {
        "active": "true",
        "cid": "A87JizJ6EjcxF3EdmaSR",
        "title_ar": "الليمون",
        "tfps": "140",
        "id": "zumvjHdZ9A1O7FpN3F7M",
        "title": "Laymoune",
        "district": "Sidi Maarouf",
        "type": "N",
        "number": "36",
        "color": "#f38230",
        "description": "",
        "lat": "33.5404515",
        "lng": "-7.6660668"
        },
        {
        "district": "Sidi Maarouf",
        "type": "T1",
        "number": "37",
        "color": "#f38230",
        "description": "",
        "lat": "33.5356088",
        "lng": "-7.6698766",
        "active": "true",
        "cid": "A87JizJ6EjcxF3EdmaSR",
        "title_ar": " ليساسفة النهاية",
        "tfps": "130",
        "id": "DWJ7rBS8OHkWIdj1Onn3",
        "title": "Lissasfa Terminus"
        },
        // T2
        {
        "district": "Sidi Bernoussi",
        "type": "T2",
        "number": "38",
        "color": "#f38230",
        "description": "",
        "lat": "33.6101640",
        "lng": "-7.5099640",
        "active": "true",
        "cid": "A87JizJ6EjcxF3EdmaSR",
        "title_ar": "سيدي البرنوصي النهاية",
        "tfps": "0",
        "id": "DWJ7rBS8OHkWIdj1Onn3-38",
        "title": "Sidi Bernoussi Terminus"
        },
        {
        "district": "Sidi Bernoussi",
        "type": "N",
        "number": "39",
        "color": "#f38230",
        "description": "",
        "lat": "33.6066900",
        "lng": "-7.5180170",
        "active": "true",
        "cid": "A87JizJ6EjcxF3EdmaSR",
        "title_ar": "أبي ذر الغفاري",
        "tfps": "119",
        "id": "DWJ7rBS8OHkWIdj1Onn3-39",
        "title": "Abi Dar El Ghafari"
        },
        {
        "district": "Ain Sbaa",
        "type": "N",
        "number": "40",
        "color": "#f38230",
        "description": "",
        "lat": "33.6074460",
        "lng": "-7.5243780",
        "active": "true",
        "cid": "A87JizJ6EjcxF3EdmaSR",
        "title_ar": "محطة عين السبع",
        "tfps": "174",
        "id": "DWJ7rBS8OHkWIdj1Onn3-40",
        "title": "Gare de Ain Sbaa"
        },
        {
        "district": "Ain Sbaa",
        "type": "N",
        "number": "41",
        "color": "#f38230",
        "description": "",
        "lat": "33.6021530",
        "lng": "-7.5298418",
        "active": "true",
        "cid": "A87JizJ6EjcxF3EdmaSR",
        "title_ar": "عمالة عين السبع",
        "tfps": "148",
        "id": "DWJ7rBS8OHkWIdj1Onn3-41",
        "title": "Préfecture Ain Sbaa"
        },
        {
        "district": "Ain Sbaa",
        "type": "N",
        "number": "42",
        "color": "#f38230",
        "description": "",
        "lat": "33.5991887",
        "lng": "-7.5328965",
        "active": "true",
        "cid": "A87JizJ6EjcxF3EdmaSR",
        "title_ar": "الأمان",
        "tfps": "160",
        "id": "DWJ7rBS8OHkWIdj1Onn3-42",
        "title": "AL Amane"
        },
        {
        "district": "Ain Sbaa",
        "type": "N",
        "number": "43",
        "color": "#f38230",
        "description": "",
        "lat": "33.5956990",
        "lng": "-7.5380080",
        "active": "true",
        "cid": "A87JizJ6EjcxF3EdmaSR",
        "title_ar": "الوفاق",
        "tfps": "116",
        "id": "DWJ7rBS8OHkWIdj1Onn3-43",
        "title": "Al Wifaq"
        },
        {
        "district": "Ain Sbaa",
        "type": "N",
        "number": "44",
        "color": "#f38230",
        "description": "",
        "lat": "33.5938630",
        "lng": "-7.5573440",
        "active": "true",
        "cid": "A87JizJ6EjcxF3EdmaSR",
        "title_ar": "دارلمان",
        "tfps": "229",
        "id": "DWJ7rBS8OHkWIdj1Onn3-44",
        "title": "Dar Laman"
        },
        {
        "district": "Ain Sbaa",
        "type": "C",
        "number": "45",
        "color": "#f38230",
        "description": "",
        "lat": "33.5927990",
        "lng": "-7.5644460",
        "active": "true",
        "cid": "A87JizJ6EjcxF3EdmaSR",
        "title_ar": "كريان سنطرال",
        "tfps": "116",
        "id": "DWJ7rBS8OHkWIdj1Onn3-45",
        "title": "Carrières centrales"
        },
        {
        "district": "Hay Mohammadi",
        "type": "N",
        "number": "46",
        "color": "#f38230",
        "description": "",
        "lat": "33.5871070",
        "lng": "-7.5636160",
        "active": "true",
        "cid": "A87JizJ6EjcxF3EdmaSR",
        "title_ar": "قسارية الحي المحمدي",
        "tfps": "162",
        "id": "DWJ7rBS8OHkWIdj1Onn3-46",
        "title": "Kissariat hay MOHAMMADI"
        },
        {
        "district": "Hay Mohammadi",
        "type": "C",
        "number": "47",
        "color": "#f38230",
        "description": "",
        "lat": "33.5813420",
        "lng": "-7.5633130",
        "active": "true",
        "cid": "A87JizJ6EjcxF3EdmaSR",
        "title_ar": "محطة المداكرة",
        "tfps": "161",
        "id": "DWJ7rBS8OHkWIdj1Onn3-47",
        "title": "Mdakra"
        },
        {
        "district": "Hay Mohammadi",
        "type": "N",
        "number": "48",
        "color": "#f38230",
        "description": "",
        "lat": "33.5792900",
        "lng": "-7.5681150",
        "active": "true",
        "cid": "A87JizJ6EjcxF3EdmaSR",
        "title_ar": "حي عادل",
        "tfps": "105",
        "id": "DWJ7rBS8OHkWIdj1Onn3-48",
        "title": "Hay Adil"
        },
        {
        "district": "Hay Mohammadi",
        "type": "N",
        "number": "49",
        "color": "#f38230",
        "description": "",
        "lat": "33.5766330",
        "lng": "-7.5743990",
        "active": "false",
        "cid": "A87JizJ6EjcxF3EdmaSR",
        "title_ar": "مقبرة الشهداء",
        "tfps": "134",
        "id": "DWJ7rBS8OHkWIdj1Onn3-49",
        "title": "Cimetière Achohada"
        },
        {
        "district": "Hay Mohammadi",
        "type": "N",
        "number": "50",
        "color": "#f38230",
        "description": "",
        "lat": "33.5719870",
        "lng": "-7.5807390",
        "active": "true",
        "cid": "A87JizJ6EjcxF3EdmaSR",
        "title_ar": "درب ميلان",
        "tfps": "169",
        "id": "DWJ7rBS8OHkWIdj1Onn3-50",
        "title": "Derb Milan"
        },
        {
        "district": "Fida",
        "type": "N",
        "number": "51",
        "color": "#f38230",
        "description": "",
        "lat": "33.5717270",
        "lng": "-7.5863320",
        "active": "true",
        "cid": "A87JizJ6EjcxF3EdmaSR",
        "title_ar": "حي الفرح",
        "tfps": "110",
        "id": "DWJ7rBS8OHkWIdj1Onn3-51",
        "title": "Hay El Farah"
        },
        {
        "district": "Fida",
        "type": "N",
        "number": "52",
        "color": "#f38230",
        "description": "",
        "lat": "33.5721660",
        "lng": "-7.5958180",
        "active": "true",
        "cid": "A87JizJ6EjcxF3EdmaSR",
        "title_ar": "درب السلطان",
        "tfps": "151",
        "id": "DWJ7rBS8OHkWIdj1Onn3-52",
        "title": "Derb Sultan"
        },
        {
        "district": "Fida",
        "type": "N",
        "number": "53",
        "color": "#f38230",
        "description": "",
        "lat": "33.5696250",
        "lng": "-7.6022610",
        "active": "true",
        "cid": "A87JizJ6EjcxF3EdmaSR",
        "title_ar": "ساحة السراغنة",
        "tfps": "138",
        "id": "DWJ7rBS8OHkWIdj1Onn3-53",
        "title": "Place Sraghna"
        },
        {
        "district": "Fida",
        "type": "N",
        "number": "54",
        "color": "#f38230",
        "description": "",
        "lat": "33.5665850",
        "lng": "-7.6072450",
        "active": "true",
        "cid": "A87JizJ6EjcxF3EdmaSR",
        "title_ar": "الفداء",
        "tfps": "107",
        "id": "DWJ7rBS8OHkWIdj1Onn3-54",
        "title": "El Fida"
        },
        {
        "district": "Fida",
        "type": "N",
        "number": "55",
        "color": "#f38230",
        "description": "",
        "lat": "33.5691340",
        "lng": "-7.6122880",
        "active": "true",
        "cid": "A87JizJ6EjcxF3EdmaSR",
        "title_ar": "2 مارس",
        "tfps": "163",
        "id": "DWJ7rBS8OHkWIdj1Onn3-55",
        "title": "2 Mars"
        },
        {
        "district": "Fida",
        "type": "N",
        "number": "56",
        "color": "#f38230",
        "description": "",
        "lat": "33.5692080",
        "lng": "-7.6178920",
        "active": "true",
        "cid": "A87JizJ6EjcxF3EdmaSR",
        "title_ar": "لرمتاج",
        "tfps": "107",
        "id": "DWJ7rBS8OHkWIdj1Onn3-56",
        "title": "Hermitage"
        },
        {
        "district": "Fida",
        "type": "C",
        "number": "57",
        "color": "#f38230",
        "description": "",
        "lat": "33.5694510",
        "lng": "-7.6250620",
        "active": "true",
        "cid": "A87JizJ6EjcxF3EdmaSR",
        "title_ar": "انوال",
        "tfps": "125",
        "id": "DWJ7rBS8OHkWIdj1Onn3-57",
        "title": "Anoual"
        },
        {
        "description": "",
        "lat": "33.56995636414377",
        "lng": "-7.631528514932256",
        "active": "true",
        "cid": "A87JizJ6EjcxF3EdmaSR",
        "title_ar": "درب غلف",
        "tfps": "126",
        "id": "IUYcyLcvhElHP7LWlUUn",
        "title": "Derb Ghalef",
        "district": "Maarif",
        "type": "N",
        "number": "58",
        "color": "#f38230"
        },
        {
        "district": "Maarif",
        "type": "N",
        "number": "59",
        "color": "#f38230",
        "description": "",
        "lat": "33.570868176850745",
        "lng": "-7.636485237191778",
        "active": "true",
        "cid": "A87JizJ6EjcxF3EdmaSR",
        "title_ar": "ريفيرا",
        "tfps": "109",
        "id": "LjucVcK5Aui32haIyll6",
        "title": "Riviera"
        },
        {
        "active": "true",
        "cid": "A87JizJ6EjcxF3EdmaSR",
        "title_ar": "غاندي",
        "tfps": "165",
        "id": "zumvjHdZ9A1O7FpN3F7M",
        "title": "Ghandi",
        "district": "Maarif",
        "type": "N",
        "number": "60",
        "color": "#f38230",
        "description": "",
        "lat": "33.568476882841196",
        "lng": "-7.644783991883855"
        },
        {
        "district": "Beauséjour",
        "type": "N",
        "number": "61",
        "color": "#f38230",
        "description": "",
        "lat": "33.564561275250796",
        "lng": "-7.647729057382207",
        "active": "true",
        "cid": "A87JizJ6EjcxF3EdmaSR",
        "title_ar": "المقام الجميل",
        "tfps": "121",
        "id": "OSubisDzdPa8WO61PEg8",
        "title": "Beauséjour"
        },
        {
        "district": "Hay Hassani",
        "type": "N",
        "number": "62",
        "color": "#f38230",
        "description": "",
        "lat": "33.56141435690225",
        "lng": "-7.652868169854742",
        "active": "true",
        "cid": "A87JizJ6EjcxF3EdmaSR",
        "title_ar": "حي الأندية",
        "tfps": "0",
        "id": "mlDDjkSUeQb9zYezEcaM",
        "title": "Anfa Clubs"
        },
        {
        "type": "N",
        "number": "63",
        "color": "#f38230",
        "description": "",
        "lat": "33.55966204584613",
        "lng": "-7.657352823327642",
        "active": "false",
        "cid": "A87JizJ6EjcxF3EdmaSR",
        "title_ar": "حديقة أنفا",
        "tfps": "0",
        "id": "saoHKEZxeg80ISX8NvWL",
        "title": "Anfa Park",
        "district": "Hay Hassani"
        },
        {
        "lng": "-7.660979169915777",
        "active": "true",
        "cid": "A87JizJ6EjcxF3EdmaSR",
        "title_ar": "القطب المالي",
        "tfps": "0",
        "id": "c1g4lG3xvgQ9pPkIg3Gw",
        "title": "Place financière",
        "district": "Hay Hassani",
        "type": "N",
        "number": "64",
        "color": "#f38230",
        "description": "",
        "lat": "33.56214745608113"
        },
        {
        "title": "Abdellah Ben Cherif",
        "district": "Hay Hassani",
        "type": "N",
        "number": "65",
        "color": "#f38230",
        "description": "",
        "lat": "33.56575921971241",
        "lng": "-7.66014232070313",
        "active": "false",
        "cid": "A87JizJ6EjcxF3EdmaSR",
        "title_ar": "عبدالله بن الشريف",
        "tfps": "0",
        "id": "4061yBgxQG8eTZcBTMOp"
        },
        {
        "title": "Cité de l'air",
        "district": "Hay Hassani",
        "type": "N",
        "number": "66",
        "color": "#f38230",
        "description": "",
        "lat": "33.56833385007219",
        "lng": "-7.664498228143316",
        "active": "true",
        "cid": "A87JizJ6EjcxF3EdmaSR",
        "title_ar": "حي المطار",
        "tfps": "489",
        "id": "GBz3eFg3oZdjvUcZUlPN"
        },
        {
        "district": "Hay Hassani",
        "type": "N",
        "number": "67",
        "color": "#f38230",
        "description": "",
        "lat": "33.571927476579155",
        "lng": "-7.66939057738648",
        "active": "true",
        "cid": "A87JizJ6EjcxF3EdmaSR",
        "title_ar": "سيدي عبد الرحمان",
        "tfps": "132",
        "id": "2uyRhzMpr2RPGmnglWSa",
        "title": "Sidi Abderrahmane"
        },
        {
        "title": "Hay Hassani",
        "district": "Hay Hassani",
        "type": "N",
        "number": "68",
        "color": "#f38230",
        "description": "",
        "lat": "33.57678131668499",
        "lng": "-7.67312421233521",
        "active": "true",
        "cid": "A87JizJ6EjcxF3EdmaSR",
        "title_ar": "الحي الحسني",
        "tfps": "119",
        "id": "w2WicoBhXOjelutDmms8"
        },
        {
        "color": "#f38230",
        "description": "",
        "lat": "33.58090195013545",
        "lng": "-7.674797910760503",
        "active": "true",
        "cid": "A87JizJ6EjcxF3EdmaSR",
        "title_ar": "الساحل",
        "tfps": "119",
        "id": "6PGyk0OdIEFppX6fvbmk",
        "title": "Littoral",
        "district": "Hay Hassani",
        "type": "N",
        "number": "69"
        },
        {
        "district": "Ain Diab",
        "type": "T2",
        "number": "70",
        "color": "#f38230",
        "description": "",
        "lat": "33.587471316737954",
        "lng": "-7.680838245462041",
        "active": "true",
        "cid": "A87JizJ6EjcxF3EdmaSR",
        "title_ar": "عين الذئاب الشاطئ النهاية",
        "tfps": "159",
        "id": "DWJ7rBS8OHkWIdj1Onn3",
        "title": "Ain Diab Plage Terminus"
        }
    ]